{"0": {"id": 10, "name": "Brendan Williams", "address": "233 Sheppard Mount Apt. 063\nLake Kelsey, MD 33812", "latitude": "-36.642233", "longitude": "65.850644"}, "1": {"id": 6, "name": "Diane Chavez", "address": "3674 Dakota Estate\nOrtizton, AZ 34552", "latitude": "-50.8754735", "longitude": "159.805382"}, "2": {"id": 7, "name": "Bobby Walker", "address": "81392 Robert Walk\nNorth Robertville, KY 46721", "latitude": "40.4321845", "longitude": "35.510526"}, "3": {"id": 22, "name": "Justin Reeves", "address": "9063 Carter Isle Suite 162\nWest Christopherborough, MD 92345", "latitude": "-42.023717", "longitude": "87.108450"}, "4": {"id": 83, "name": "Michael Mills", "address": "4877 Raymond Heights\nSouth Matthewshire, NV 97277", "latitude": "26.014736", "longitude": "-93.315823"}, "5": {"id": 28, "name": "Jamie Barnett", "address": "8604 Connie Key Suite 870\nKristinberg, FL 68261", "latitude": "-35.8544575", "longitude": "-49.052174"}, "6": {"id": 97, "name": "Daniel Bryant", "address": "0401 Cook Orchard Suite 033\nTinafurt, MS 19933", "latitude": "-69.932552", "longitude": "44.643795"}, "7": {"id": 55, "name": "Lori Hopkins", "address": "9912 Collins Isle Apt. 898\nKennethmouth, KS 04418", "latitude": "21.029651", "longitude": "-75.502917"}, "8": {"id": 24, "name": "Elizabeth Simpson", "address": "84405 King Springs Suite 830\nSheilabury, MD 46824", "latitude": "13.399359", "longitude": "177.832347"}, "9": {"id": 55, "name": "Tracy Lowe", "address": "2663 Kimberly Turnpike\nHardinburgh, CT 92224", "latitude": "73.0193165", "longitude": "78.564860"}}